[{"name":"2903 Avenue B, Anna Maria Island, FL","lat":27.48848,"lng":-82.70471,"address":"2903 Avenue B","city":"Bradenton","gpid":null,"rating":null,"reviews":0},{"name":"3001 Gulf Dr, Holmes Beach","lat":27.489478,"lng":-82.706665,"address":"3001 Gulf Dr","city":"Bradenton","gpid":null,"rating":null,"reviews":0},{"name":"AG Casa Marina","lat":27.480263,"lng":-82.704617,"address":"2318 Gulf Drive North","city":"Bradenton","gpid":null,"rating":null,"reviews":0},{"name":"Alamanda Villas","lat":27.496598,"lng":-82.71142,"address":"102 39th St","city":"Bradenton","gpid":null,"rating":null,"reviews":0},{"name":"Angel's Vacation Rentals","lat":27.414565,"lng":-82.66028,"address":"5610 Gulf of Mexico Dr Ste 1","city":"Bradenton","gpid":null,"rating":null,"reviews":0},{"name":"Angelinos Sea Lodge","lat":27.487426,"lng":-82.707396,"address":"2818 Avenue E Holmes Beach","city":"Bradenton","gpid":null,"rating":null,"reviews":0},{"name":"Anna Maria Gulf Coast Rentals","lat":27.493005,"lng":-82.70806,"address":"3340 E Bay Dr","city":"Bradenton","gpid":null,"rating":null,"reviews":0},{"name":"Anna Maria Island Beach Resort","lat":27.496166,"lng":-82.711296,"address":"105 39th St","city":"Bradenton","gpid":null,"rating":null,"reviews":0},{"name":"Anna Maria Island Dream Inn","lat":27.482191,"lng":-82.705198,"address":"2502 Gulf Dr N","city":"Bradenton","gpid":null,"rating":null,"reviews":0},{"name":"Anna Maria Island Inn","lat":27.478812,"lng":-82.704124,"address":"2300 Gulf Dr N","city":"Bradenton","gpid":"ChIJjRZP47wRw4gRUurwE1ZgRaQ","rating":4.7,"reviews":1270},{"name":"Anna Maria Island Resorts","lat":27.464553,"lng":-82.696905,"address":"115 3rd St S","city":"Bradenton","gpid":null,"rating":null,"reviews":0},{"name":"Anna Maria Island Vacation Rentals","lat":27.469156,"lng":-82.699511,"address":"601 Gulf Dr N","city":"Bradenton","gpid":null,"rating":null,"reviews":0},{"name":"Anna Maria Pirates Den","lat":27.493837,"lng":-82.709098,"address":"3501 gulf drive","city":"Bradenton","gpid":null,"rating":null,"reviews":0},{"name":"Anna Maria Vacations","lat":27.509097,"lng":-82.714732,"address":"5702 Marina Dr Ste 108","city":"Bradenton","gpid":null,"rating":null,"reviews":0},{"name":"Arbors By The Sea","lat":27.410845,"lng":-82.65852,"address":"5441 Gulf of Mexico Dr","city":"Bradenton","gpid":null,"rating":null,"reviews":0},{"name":"Avenue Beach House","lat":27.482194,"lng":-82.702975,"address":"2419 Avenue B","city":"Bradenton","gpid":null,"rating":null,"reviews":0},{"name":"Baxter's","lat":27.472159,"lng":-82.574715,"address":"3225 14th St W","city":"Bradenton","gpid":null,"rating":null,"reviews":0},{"name":"Bay Breeze Inn","lat":27.485229,"lng":-82.575569,"address":"1526 Tamiami Trl","city":"Bradenton","gpid":"ChIJp6eGDDEWw4gRkv0ZSe4kSsk","rating":2.5,"reviews":377},{"name":"Beach Castle Resort","lat":27.409733,"lng":-82.65546,"address":"5310 Gulf of Mexico Dr","city":"Bradenton","gpid":null,"rating":null,"reviews":0},{"name":"Beach Club","lat":27.477867,"lng":-82.703297,"address":"2201 Gulf Dr N","city":"Bradenton","gpid":null,"rating":null,"reviews":0},{"name":"Beach House Resort","lat":27.470978,"lng":-82.700763,"address":"1000 Gulf Dr N Unit 4","city":"Bradenton","gpid":null,"rating":null,"reviews":0},{"name":"Best Western Plus Bradenton Gateway Hotel","lat":27.460898,"lng":-82.584101,"address":"2215 Cortez Rd W","city":"Bradenton","gpid":null,"rating":null,"reviews":0},{"name":"Bimini Bay Front Home by RedAwning","lat":27.514131,"lng":-82.715483,"address":"25 Seaside Ct","city":"Bradenton","gpid":null,"rating":null,"reviews":0},{"name":"Blue Boy Motel","lat":27.482847,"lng":-82.575132,"address":"1839 Tamiami Trl","city":"Bradenton","gpid":null,"rating":null,"reviews":0},{"name":"BridgeWalk - A Landmark Resort","lat":27.46535,"lng":-82.698071,"address":"100 Bridge St","city":"Bradenton","gpid":null,"rating":null,"reviews":0},{"name":"Budget Motel","lat":27.454471,"lng":-82.548068,"address":"1400 301 Blvd E","city":"Bradenton","gpid":null,"rating":null,"reviews":0},{"name":"Bungalow Beach Resort","lat":27.476508,"lng":-82.702941,"address":"2000 Gulf Dr N","city":"Bradenton","gpid":"ChIJTXee71MRw4gRpMU2A5Nf1jg","rating":4.7,"reviews":491},{"name":"Cannons By The Sea Beach Cottages","lat":27.421324,"lng":-82.669263,"address":"6051 Gulf of Mexico Dr","city":"Bradenton","gpid":null,"rating":null,"reviews":0},{"name":"Casa Del Mar","lat":27.397559,"lng":-82.647636,"address":"4621 Gulf of Mexico Dr","city":"Bradenton","gpid":"ChIJe6f8jYEUw4gRCll_lYuH3L8","rating":4.6,"reviews":465},{"name":"Casa Sierra Rental","lat":27.494138,"lng":-82.708837,"address":"205 36th St Unit 1","city":"Bradenton","gpid":null,"rating":null,"reviews":0},{"name":"Castnetter Beach Resort","lat":27.497871,"lng":-82.710778,"address":"4102 4th Ave","city":"Bradenton","gpid":null,"rating":null,"reviews":0},{"name":"Cedar Cove Resort & Cottages","lat":27.485485,"lng":-82.705935,"address":"2710 Gulf Dr","city":"Bradenton","gpid":"ChIJ7WzbNroRw4gRq5T3dDd75a8","rating":4.5,"reviews":419},{"name":"Cedars Bar & Grill","lat":27.417643,"lng":-82.660343,"address":"645 Cedars Ct","city":"Bradenton","gpid":null,"rating":null,"reviews":0},{"name":"Cedars Tennis Resort by RVA","lat":27.416839,"lng":-82.660029,"address":"456 Cedars Court","city":"Bradenton","gpid":null,"rating":null,"reviews":0},{"name":"Cedars West","lat":27.4157,"lng":-82.663035,"address":"5655 Gulf of Mexico Dr","city":"Bradenton","gpid":null,"rating":null,"reviews":0},{"name":"Club Bamboo","lat":27.465384,"lng":-82.697942,"address":"104 Bridge St","city":"Bradenton","gpid":null,"rating":null,"reviews":0},{"name":"Club Bamboo Resorts","lat":27.482254,"lng":-82.705182,"address":"2502 Gulf Dr N","city":"Bradenton","gpid":null,"rating":null,"reviews":0},{"name":"Club Longboat","lat":27.405251,"lng":-82.653066,"address":"5055 Gulf of Mexico Dr","city":"Bradenton","gpid":null,"rating":null,"reviews":0},{"name":"Compass Hotel Anna Maria Sound","lat":27.496746,"lng":-82.68727,"address":"12324 Manatee Ave W","city":"Bradenton","gpid":"ChIJRc3ulAERw4gRR-XKZC-_SQM","rating":4.5,"reviews":1192},{"name":"Courtyard by Marriott Bradenton Sarasota/Riverfront","lat":27.499488,"lng":-82.565075,"address":"100 Riverfront Dr. West","city":"Bradenton","gpid":"ChIJmRgc9NYXw4gRQlAxbX-KlVU","rating":4.2,"reviews":1123},{"name":"Days Inn Bradenton - Near the Gulf","lat":27.46932,"lng":-82.564102,"address":"3506 1st Street West","city":"Bradenton","gpid":null,"rating":null,"reviews":0},{"name":"Dream Lover Boat & Breakfast","lat":27.46755,"lng":-82.69766,"address":"402 Church Ave","city":"Bradenton","gpid":null,"rating":null,"reviews":0},{"name":"Driftwood Motel","lat":27.505108,"lng":-82.7131,"address":"5108 Gulf Dr","city":"Bradenton","gpid":null,"rating":null,"reviews":0},{"name":"Fantasy Travel","lat":27.463545,"lng":-82.627725,"address":"6634 Cortez Rd W","city":"Bradenton","gpid":null,"rating":null,"reviews":0},{"name":"Fun Wave Rentals","lat":27.496044,"lng":-82.645325,"address":"8383 Manatee Ave W Apt 1908","city":"Bradenton","gpid":null,"rating":null,"reviews":0},{"name":"Gulf Sands","lat":27.498784,"lng":-82.713056,"address":"4200 Gulf Dr","city":"Bradenton","gpid":null,"rating":null,"reviews":0},{"name":"Gulf Stream Resort","lat":27.474082,"lng":-82.70023,"address":"1501 Gulf Dr.","city":"Bradenton","gpid":null,"rating":null,"reviews":0},{"name":"Hampton Inn & Suites","lat":27.497049,"lng":-82.571662,"address":"309 10th St W","city":"Bradenton","gpid":"ChIJVQaaFtIXw4gRDqNclhoqWDI","rating":4.5,"reviews":1398},{"name":"Harbor Lane Court Vacation Rentals","lat":27.501115,"lng":-82.71237,"address":"4509 Gulf Dr","city":"Bradenton","gpid":null,"rating":null,"reviews":0},{"name":"Holiday Inn Express & Suites","lat":27.461017,"lng":-82.609027,"address":"4450 47th St W","city":"Bradenton","gpid":"ChIJk6zAA4kWw4gR7mu134NTNgI","rating":4.1,"reviews":735},{"name":"Holiday Inn Express & Suites BRADENTON WEST","lat":27.461017,"lng":-82.609027,"address":"4450 47th St W","city":"Bradenton","gpid":"ChIJk6zAA4kWw4gR7mu134NTNgI","rating":4.1,"reviews":735},{"name":"Holiday Inn River Front Hotel Bradenton","lat":27.499396,"lng":-82.56491,"address":"100 Riverfront Blvd","city":"Bradenton","gpid":null,"rating":null,"reviews":0},{"name":"Hotel Homes","lat":27.492802,"lng":-82.708836,"address":"3302 6th Ave Apt 2","city":"Bradenton","gpid":null,"rating":null,"reviews":0},{"name":"Howard Johnson Express Inn Bradenton","lat":27.425467,"lng":-82.57501,"address":"6511 14th St W","city":"Bradenton","gpid":null,"rating":null,"reviews":0},{"name":"Howard Johnson Inn Bradenton-Sarasota Airport","lat":27.425467,"lng":-82.57501,"address":"6511 14th St W # W","city":"Bradenton","gpid":null,"rating":null,"reviews":0},{"name":"Island Garden Villas","lat":27.508428,"lng":-82.718146,"address":"","city":"Bradenton","gpid":null,"rating":null,"reviews":0},{"name":"Island West","lat":27.494457,"lng":-82.709172,"address":"3605 Gulf Dr # 3","city":"Bradenton","gpid":null,"rating":null,"reviews":0},{"name":"Kentucky Motel","lat":27.486085,"lng":-82.574739,"address":"17th Ave W & Tamiami Trail","city":"Bradenton","gpid":"ChIJM0UTKzIWw4gRSm5JR5EHYDc","rating":2.8,"reviews":226},{"name":"Legacy Hotel at IMG Academy","lat":27.447699,"lng":-82.607025,"address":"5450 Bollettieri Blvd","city":"Bradenton","gpid":null,"rating":null,"reviews":0},{"name":"Lifestyle Magic","lat":27.48551,"lng":-82.703406,"address":"505 Bayview Dr","city":"Bradenton","gpid":null,"rating":null,"reviews":0},{"name":"Longboat Terrace","lat":27.409866,"lng":-82.657577,"address":"5393 Gulf of Mexico Dr","city":"Bradenton","gpid":null,"rating":null,"reviews":0},{"name":"M-Star Bradenton","lat":27.425467,"lng":-82.57501,"address":"6511 14th St W","city":"Bradenton","gpid":null,"rating":null,"reviews":0},{"name":"Michiana Motel","lat":27.471932,"lng":-82.575136,"address":"3235 14th St W","city":"Bradenton","gpid":null,"rating":null,"reviews":0},{"name":"Old Bridge  Village","lat":27.464553,"lng":-82.696905,"address":"115 3rd St S","city":"Bradenton","gpid":null,"rating":null,"reviews":0},{"name":"Outrigger Resort","lat":27.406876,"lng":-82.655003,"address":"5155 Gulf of Mexico Dr","city":"Bradenton","gpid":null,"rating":null,"reviews":0},{"name":"Pacific Tomato Growers","lat":27.520686,"lng":-82.570505,"address":"503 10th St W","city":"Bradenton","gpid":null,"rating":null,"reviews":0},{"name":"Palmetto Marriott Resort & Spa","lat":27.51661,"lng":-82.56181,"address":"600 US-41, Palmetto, FL 34221","city":"Bradenton","gpid":"ChIJPdQY5BA9w4gRH7V0a3JvRh4","rating":4.5,"reviews":440},{"name":"Palmetto Riverside Bed & Breakfast","lat":27.512579,"lng":-82.577312,"address":"1102 Riverside Dr","city":"Bradenton","gpid":"ChIJgZJ4zsMXw4gRr1pQnjBfkyQ","rating":4.9,"reviews":221},{"name":"Parrot Inn","lat":27.461251,"lng":-82.649526,"address":"8621 Cortez Rd W","city":"Bradenton","gpid":null,"rating":null,"reviews":0},{"name":"Pelican Cove Resort","lat":27.460549,"lng":-82.696659,"address":"901 Gulf Dr S","city":"Bradenton","gpid":null,"rating":null,"reviews":0},{"name":"Pelican Post Motel","lat":27.466205,"lng":-82.69737,"address":"202 1st St N","city":"Bradenton","gpid":null,"rating":null,"reviews":0},{"name":"Playa Casanas North","lat":27.5104,"lng":-82.71973,"address":"Holmes Beach , 34217, United States","city":"Bradenton","gpid":null,"rating":null,"reviews":0},{"name":"Pool at Holiday Inn Express & Suites","lat":27.461044,"lng":-82.608925,"address":"4450 47th St W","city":"Bradenton","gpid":null,"rating":null,"reviews":0},{"name":"Quality Inn North","lat":27.421012,"lng":-82.574951,"address":"14th St. West","city":"Bradenton","gpid":null,"rating":null,"reviews":0},{"name":"Queen's Gate Resort","lat":27.471744,"lng":-82.700364,"address":"1101 Gulf Dr N","city":"Bradenton","gpid":null,"rating":null,"reviews":0},{"name":"Ramada Sarasota","lat":27.413316,"lng":-82.573309,"address":"7150 N Tamiami Trl","city":"Bradenton","gpid":null,"rating":null,"reviews":0},{"name":"Royal Motel","lat":27.485229,"lng":-82.575569,"address":"1526 Tamiami Trl","city":"Bradenton","gpid":null,"rating":null,"reviews":0},{"name":"Runaway Bay","lat":27.475487,"lng":-82.700633,"address":"1801 Gulf Dr N","city":"Bradenton","gpid":null,"rating":null,"reviews":0},{"name":"Rva A Resort Quest Affiliate","lat":27.425769,"lng":-82.673349,"address":"6350 Gulf of Mexico Dr","city":"Bradenton","gpid":null,"rating":null,"reviews":0},{"name":"Sailfish Beach Resort","lat":27.495284,"lng":-82.711112,"address":"3718 Gulf Dr","city":"Bradenton","gpid":null,"rating":null,"reviews":0},{"name":"Sailfish Gulf Suites","lat":27.495404,"lng":-82.711321,"address":"3718 Gulf Dr","city":"Bradenton","gpid":null,"rating":null,"reviews":0},{"name":"Salty Living Island Rentals","lat":27.467842,"lng":-82.699203,"address":"307 Gulf Dr N # 400","city":"Bradenton","gpid":null,"rating":null,"reviews":0},{"name":"Sand Cay Beach Resort","lat":27.400352,"lng":-82.649164,"address":"4725 Gulf of Mexico Dr","city":"Bradenton","gpid":null,"rating":null,"reviews":0},{"name":"Sandpiper Inn","lat":27.411107,"lng":-82.65863,"address":"5451 Gulf of Mexico Dr","city":"Bradenton","gpid":null,"rating":null,"reviews":0},{"name":"Sarasota Hotel & Marina","lat":27.413896,"lng":-82.573752,"address":"7150 N Tamiami Trl","city":"Bradenton","gpid":null,"rating":null,"reviews":0},{"name":"Sea Grape Inn","lat":27.406389,"lng":-82.654259,"address":"5125 Gulf of Mexico Dr","city":"Bradenton","gpid":null,"rating":null,"reviews":0},{"name":"SeaBreeze Sands by RedAwning","lat":27.495528,"lng":-82.710626,"address":"202 38th St","city":"Bradenton","gpid":null,"rating":null,"reviews":0},{"name":"SeaBreeze Vacation","lat":27.506192,"lng":-82.715392,"address":"5306 Holmes Blvd Ste 800","city":"Bradenton","gpid":null,"rating":null,"reviews":0},{"name":"Seaside Inn and Resort","lat":27.477839,"lng":-82.703845,"address":"2200 Gulf Dr N","city":"Bradenton","gpid":null,"rating":null,"reviews":0},{"name":"Shorewalk Vacation Villas","lat":27.459662,"lng":-82.607772,"address":"4601 46th Street Ct W","city":"Bradenton","gpid":null,"rating":null,"reviews":0},{"name":"Siesta Inn & Suites","lat":27.479063,"lng":-82.562538,"address":"501-519 23rd Ave E","city":"Bradenton","gpid":null,"rating":null,"reviews":0},{"name":"Silver Sands","lat":27.417761,"lng":-82.665361,"address":"5841 Gulf of Mexico Dr","city":"Bradenton","gpid":"ChIJz5TQ0pYTw4gR83K9EyRe80k","rating":4.3,"reviews":227},{"name":"Silver Sands Gulf Beach Resort","lat":27.417727,"lng":-82.66549,"address":"5841 Gulf of Mexico Dr Ste A","city":"Bradenton","gpid":"ChIJz5TQ0pYTw4gR83K9EyRe80k","rating":4.3,"reviews":227},{"name":"Silver Surf Gulf Beach Resort","lat":27.472661,"lng":-82.700551,"address":"1301 Gulf Dr N","city":"Bradenton","gpid":null,"rating":null,"reviews":0},{"name":"Silver Surf Motel","lat":27.472661,"lng":-82.700551,"address":"1301 Gulf Dr N","city":"Bradenton","gpid":null,"rating":null,"reviews":0},{"name":"Smuggler's Cove Beach Resort","lat":27.474094,"lng":-82.701067,"address":"1501 Gulf Dr N","city":"Bradenton","gpid":null,"rating":null,"reviews":0},{"name":"SpringHill Suites by Marriott Bradenton Downtown/Riverfront","lat":27.498837,"lng":-82.573699,"address":"102 12th St W","city":"Bradenton","gpid":"ChIJq4KWDc4Xw4gRJ_ZVutHZh3I","rating":4.5,"reviews":674},{"name":"Starfish Enterprise LBK","lat":27.505352,"lng":-82.682935,"address":"254 Sapphire Lake Dr Unit 101","city":"Bradenton","gpid":null,"rating":null,"reviews":0},{"name":"Starfish Enterprise Lbk","lat":27.428518,"lng":-82.675491,"address":"548 Bayview Dr","city":"Bradenton","gpid":null,"rating":null,"reviews":0},{"name":"Style of the Isle","lat":27.494744,"lng":-82.705067,"address":"3601 E Bay Dr","city":"Bradenton","gpid":null,"rating":null,"reviews":0},{"name":"Sun 'N Sea","lat":27.39827,"lng":-82.648465,"address":"4651 Gulf of Mexico Dr","city":"Bradenton","gpid":null,"rating":null,"reviews":0},{"name":"Sun Resorts","lat":27.433172,"lng":-82.683423,"address":"6830 Gulf of Mexico Dr","city":"Bradenton","gpid":null,"rating":null,"reviews":0},{"name":"Sunfish 104 by RedAwning","lat":27.507628,"lng":-82.717891,"address":"104 55th St Unit 102","city":"Bradenton","gpid":null,"rating":null,"reviews":0},{"name":"Super 8","lat":27.424273,"lng":-82.575846,"address":"6516 14th St W","city":"Bradenton","gpid":null,"rating":null,"reviews":0},{"name":"Super 8 Bradenton Sarasota Area","lat":27.423935,"lng":-82.576202,"address":"6516 14th St W Hwy 41 / Bayshore Garden Pkwy","city":"Bradenton","gpid":null,"rating":null,"reviews":0},{"name":"Super 8 by Wyndham","lat":27.423935,"lng":-82.576202,"address":"6516 14th St W","city":"Bradenton","gpid":null,"rating":null,"reviews":0},{"name":"The German Inn","lat":27.497638,"lng":-82.576062,"address":"304 15th St W","city":"Bradenton","gpid":null,"rating":null,"reviews":0},{"name":"The Londoner Bed & Breakfast","lat":27.497655,"lng":-82.575997,"address":"304 15th St W","city":"Bradenton","gpid":null,"rating":null,"reviews":0},{"name":"The Rush Inn","lat":27.463853,"lng":-82.696912,"address":"400 Bay Dr S","city":"Bradenton","gpid":null,"rating":null,"reviews":0},{"name":"Tortuga Inn Beach Resort","lat":27.473275,"lng":-82.700867,"address":"1325 Gulf Dr N","city":"Bradenton","gpid":"ChIJtZv7F5gRw4gRQygwlwjeArE","rating":4.6,"reviews":501},{"name":"TownePlace Suites by Marriott Sarasota Bradenton West","lat":27.459827,"lng":-82.617326,"address":"5451 Cortez Rd W","city":"Bradenton","gpid":"ChIJg6L5LJAWw4gRWfpjVd_rTPw","rating":3.9,"reviews":283},{"name":"Tradewinds Resort","lat":27.474412,"lng":-82.700741,"address":"1603 Gulf Dr N","city":"Bradenton","gpid":null,"rating":null,"reviews":0},{"name":"Tropical Isle Inn","lat":27.477347,"lng":-82.702968,"address":"101 22nd St","city":"Bradenton","gpid":null,"rating":null,"reviews":0},{"name":"Umbrella Beach Resort","lat":27.49604,"lng":-82.710669,"address":"1501 Gulf Dr N","city":"Bradenton","gpid":null,"rating":null,"reviews":0},{"name":"Vacation Homes by Angel's Vacation Rentals","lat":27.416847,"lng":-82.657567,"address":"710 Tarawitt Dr","city":"Bradenton","gpid":null,"rating":null,"reviews":0},{"name":"Vacation Rentals","lat":27.510137,"lng":-82.643633,"address":"8211 12th Ave NW","city":"Bradenton","gpid":null,"rating":null,"reviews":0},{"name":"Via Roma Beach Resort","lat":27.481019,"lng":-82.704792,"address":"2408 Gulf Dr N","city":"Bradenton","gpid":null,"rating":null,"reviews":0},{"name":"Villa FloridaDream","lat":27.500536,"lng":-82.634391,"address":"202 73rd St NW","city":"Bradenton","gpid":null,"rating":null,"reviews":0},{"name":"Villa Serena Inn","lat":27.415506,"lng":-82.568284,"address":"7014 Willow St","city":"Bradenton","gpid":null,"rating":null,"reviews":0},{"name":"Waterline Marina Resort & Beach Club, Autograph Collection","lat":27.506269,"lng":-82.713989,"address":"5325 Marina Dr","city":"Bradenton","gpid":null,"rating":null,"reviews":0},{"name":"White Sands of Longboat","lat":27.406683,"lng":-82.65292,"address":"6504 Gulf of Mexico Dr.","city":"Bradenton","gpid":null,"rating":null,"reviews":0},{"name":"Wicker Inn","lat":27.413292,"lng":-82.660262,"address":"5581 Gulf of Mexico Dr","city":"Bradenton","gpid":null,"rating":null,"reviews":0},{"name":"Zota Beach Resort","lat":27.399317,"lng":-82.648903,"address":"4711 Gulf of Mexico Dr","city":"Bradenton","gpid":"ChIJpYzyJX4Tw4gR7Eisirbe6xI","rating":4.4,"reviews":1827},{"name":"little palm inn","lat":27.545355,"lng":-82.563995,"address":"3512 US Highway 41 N","city":"Bradenton","gpid":null,"rating":null,"reviews":0},{"name":"Americas Best Value Inn Bradenton Sarasota","lat":27.49396,"lng":-82.477171,"address":"607 67th St Cir E","city":"Ellenton","gpid":"ChIJvYNHMYI8w4gRsnRqXZkBRqk","rating":3.6,"reviews":479},{"name":"Best Western Plus Bradenton Hotel & Suites","lat":27.492416,"lng":-82.475312,"address":"648 67th Street Cir E","city":"Ellenton","gpid":"ChIJGVfX-IE8w4gRX8KO6QLmUs8","rating":3.8,"reviews":659},{"name":"Carlton Arms of Bradenton","lat":27.500774,"lng":-82.516145,"address":"1191 Carlton Arms Circle","city":"Ellenton","gpid":null,"rating":null,"reviews":0},{"name":"Comfort Inn","lat":27.493769,"lng":-82.479679,"address":"580 66th Street Ct E","city":"Ellenton","gpid":null,"rating":null,"reviews":0},{"name":"Days Inn Bradenton I-75","lat":27.493215,"lng":-82.474916,"address":"644 67th St Circle East","city":"Ellenton","gpid":null,"rating":null,"reviews":0},{"name":"Guesthouse","lat":27.52833,"lng":-82.514155,"address":"4915 17th St E","city":"Ellenton","gpid":null,"rating":null,"reviews":0},{"name":"Hampton Inn by Hilton","lat":27.532577,"lng":-82.504552,"address":"5810 20th Ct E","city":"Ellenton","gpid":null,"rating":null,"reviews":0},{"name":"Holiday Inn Express Bradenton","lat":27.492487,"lng":-82.47525,"address":"648 67th Street Cir E","city":"Ellenton","gpid":null,"rating":null,"reviews":0},{"name":"Longboat Key Club & Resort - Lagoon Suites","lat":27.491262,"lng":-82.47107,"address":"301 Gulf of Mexico Drive","city":"Ellenton","gpid":null,"rating":null,"reviews":0},{"name":"Motel 6","lat":27.492242,"lng":-82.476197,"address":"660 67th Street Cir E","city":"Ellenton","gpid":"ChIJ-87K9IE8w4gRHTlsuJuFWzY","rating":3.3,"reviews":1919},{"name":"Pleasant Lake R V Park","lat":27.450053,"lng":-82.473407,"address":"6633 53rd Ave E","city":"Ellenton","gpid":null,"rating":null,"reviews":0},{"name":"Ramada Limited","lat":27.530024,"lng":-82.510999,"address":"5218 17th St E","city":"Ellenton","gpid":null,"rating":null,"reviews":0},{"name":"Red Roof Inn Ellenton","lat":27.528364,"lng":-82.514043,"address":"4915 17th St E","city":"Ellenton","gpid":"ChIJX6QIx9Y8w4gReQx67QrCz24","rating":3.6,"reviews":621},{"name":"Stoneybrook","lat":27.496831,"lng":-82.451507,"address":"8000 Stone Harbour Loop","city":"Ellenton","gpid":null,"rating":null,"reviews":0},{"name":"Sunrise Inn","lat":27.492661,"lng":-82.477702,"address":"668 67th St Cir E, Bradenton, FL 34208","city":"Ellenton","gpid":"ChIJb0bfhYE8w4gR6EXnEX38tAc","rating":3.4,"reviews":520},{"name":"Super 8","lat":27.53007,"lng":-82.511047,"address":"5218 17th St E","city":"Ellenton","gpid":"ChIJ30hX19M8w4gR7p0wd0Mscpw","rating":3.9,"reviews":797},{"name":"Tara Verandas Condo Association","lat":27.44203,"lng":-82.47348,"address":"6807 Stone River Rd","city":"Ellenton","gpid":null,"rating":null,"reviews":0},{"name":"Wyndham Hotels & Resorts","lat":27.53007,"lng":-82.511047,"address":"5218 17th St E","city":"Ellenton","gpid":null,"rating":null,"reviews":0},{"name":"Country Inn & Suites by Radisson, Bradenton-Lakewood Ranch, FL","lat":27.441129,"lng":-82.467616,"address":"5610 Manor Hill Lane","city":"Lakewood Ranch","gpid":"ChIJZUcCov07w4gRBJyq1-mizLM","rating":4.1,"reviews":661},{"name":"Courtyard Sarasota University Park/Lakewood Ranch Area","lat":27.390274,"lng":-82.456521,"address":"8305 Tourist Center Drive","city":"Lakewood Ranch","gpid":null,"rating":null,"reviews":0},{"name":"Even Hotel","lat":27.38634,"lng":-82.445199,"address":"6231 Lake Osprey Dr","city":"Lakewood Ranch","gpid":"ChIJsYtTeeM4w4gRRLv8RnmCiTk","rating":4.2,"reviews":969},{"name":"Fairfield Inn & Suites Sarasota Lakewood Ranch","lat":27.390487,"lng":-82.446411,"address":"6105 Exchange Way","city":"Lakewood Ranch","gpid":null,"rating":null,"reviews":0},{"name":"Hampton Inn & Suites","lat":27.389863,"lng":-82.451007,"address":"8565 Cooper Creek Blvd","city":"Lakewood Ranch","gpid":"ChIJh0RuWt44w4gR50AvntGV8Xg","rating":4.6,"reviews":658},{"name":"Hampton Inn & Suites North Port","lat":27.041241,"lng":-82.224885,"address":"5664 Tuscola Blvd","city":"Lakewood Ranch","gpid":"ChIJT3rZ469Uw4gRK1M5B3Cbr_M","rating":4.6,"reviews":573},{"name":"Holiday Inn Sarasota-Lakewood Ranch","lat":27.386382,"lng":-82.445095,"address":"6231 Lake Osprey Dr","city":"Lakewood Ranch","gpid":null,"rating":null,"reviews":0},{"name":"Home2 Suites by Hilton Lakewood Ranch","lat":27.392378,"lng":-82.448712,"address":"6015 Exchange Way","city":"Lakewood Ranch","gpid":"ChIJw_BtBx45w4gRIh7IlYwArNA","rating":4.7,"reviews":238},{"name":"Homewood Suites by Hilton","lat":27.380634,"lng":-82.456792,"address":"305 N Cattlemen Rd","city":"Lakewood Ranch","gpid":"ChIJyQA0K904w4gRxaM8sEe5I6o","rating":4.7,"reviews":841},{"name":"Hyatt Place Sarasota / Lakewood Ranch","lat":27.391774,"lng":-82.447918,"address":"6021 Exchange Way","city":"Lakewood Ranch","gpid":"ChIJqftER-I4w4gRWIOCznnHnqM","rating":4.5,"reviews":711},{"name":"Ker & Downey Africa","lat":27.373901,"lng":-82.313805,"address":"3203 49th Avenue Dr W","city":"Lakewood Ranch","gpid":null,"rating":null,"reviews":0},{"name":"Peninsula","lat":27.398484,"lng":-82.465912,"address":"7912 Warwick Gardens Ln","city":"Lakewood Ranch","gpid":null,"rating":null,"reviews":0},{"name":"Royalty Resorts","lat":27.340071,"lng":-82.427504,"address":"7125 Fruitville Rd","city":"Lakewood Ranch","gpid":null,"rating":null,"reviews":0},{"name":"Sun N Fun Resort and Campground","lat":27.338658,"lng":-82.426806,"address":"7125 Fruitville Rd","city":"Lakewood Ranch","gpid":null,"rating":null,"reviews":0},{"name":"Toucans Restaurant","lat":27.340134,"lng":-82.427487,"address":"7125 Fruitville Rd","city":"Lakewood Ranch","gpid":null,"rating":null,"reviews":0},{"name":"Tru by Hilton","lat":27.442417,"lng":-82.467567,"address":"5510 Manor Hill Ln","city":"Lakewood Ranch","gpid":"ChIJd_iPrv07w4gRfBSjYDKmqjM","rating":4.4,"reviews":383},{"name":"Wingate Hotel","lat":27.429756,"lng":-82.413164,"address":"5464 Lena Rd","city":"Lakewood Ranch","gpid":null,"rating":null,"reviews":0},{"name":"WoodSpring Suites Bradenton","lat":27.440834,"lng":-82.469851,"address":"7376 Stone River Road","city":"Lakewood Ranch","gpid":null,"rating":null,"reviews":0},{"name":"A Place To Be","lat":27.127061,"lng":-82.470915,"address":"212 Casey Key Rd","city":"Sarasota","gpid":null,"rating":null,"reviews":0},{"name":"Addy's Villas","lat":27.129549,"lng":-82.452975,"address":"330 Tamiami Trl N","city":"Sarasota","gpid":null,"rating":null,"reviews":0},{"name":"Addys Villas Vacation Rentals | Motel","lat":27.129549,"lng":-82.452975,"address":"330 Tamiami Trail North, Venice","city":"Sarasota","gpid":null,"rating":null,"reviews":0},{"name":"Alina Motel","lat":27.417823,"lng":-82.547285,"address":"6926 15th St E","city":"Sarasota","gpid":null,"rating":null,"reviews":0},{"name":"Allamanda Motel","lat":27.369862,"lng":-82.552007,"address":"4014 N Tamiami Trl","city":"Sarasota","gpid":null,"rating":null,"reviews":0},{"name":"Aloft Sarasota","lat":27.33397,"lng":-82.541501,"address":"1401 Ringling Blvd","city":"Sarasota","gpid":null,"rating":null,"reviews":0},{"name":"Ameniti Bay, Bw Signature Collection","lat":27.336823,"lng":-82.449609,"address":"5985 Brookhill Blvd","city":"Sarasota","gpid":null,"rating":null,"reviews":0},{"name":"AmericInn","lat":27.337553,"lng":-82.451026,"address":"5931 Fruitville Rd","city":"Sarasota","gpid":null,"rating":null,"reviews":0},{"name":"American Hotel Development Partners","lat":27.224825,"lng":-82.493699,"address":"8620 S Tamiami Trl Unit N","city":"Sarasota","gpid":null,"rating":null,"reviews":0},{"name":"Americas Best Value Inn & Suites North Port","lat":27.044298,"lng":-82.241599,"address":"14000 Tamiami Trail","city":"Sarasota","gpid":"ChIJH5YspaVVw4gR1z6hNJrQup4","rating":2.7,"reviews":451},{"name":"Americas Best Value Inn Sarasota Downtown","lat":27.327317,"lng":-82.529288,"address":"811 S Tamiami Trail","city":"Sarasota","gpid":null,"rating":null,"reviews":0},{"name":"Anchorage","lat":27.253699,"lng":-82.534045,"address":"6415 Midnight Pass Rd","city":"Sarasota","gpid":null,"rating":null,"reviews":0},{"name":"Anna Maria Beach Cottages","lat":27.199881,"lng":-82.491936,"address":"112 W Oak St","city":"Sarasota","gpid":null,"rating":null,"reviews":0},{"name":"Anna Maria Coastal Home Rentals","lat":27.319286,"lng":-82.577006,"address":"421A Saint Armands Cir","city":"Sarasota","gpid":null,"rating":null,"reviews":0},{"name":"Aqua Nails Spa","lat":27.267243,"lng":-82.515685,"address":"2708 Stickney Point Rd","city":"Sarasota","gpid":null,"rating":null,"reviews":0},{"name":"Aquarius Club","lat":27.352973,"lng":-82.612687,"address":"1701 Gulf of Mexico Dr, Longboat Key, FL 34228","city":"Sarasota","gpid":null,"rating":null,"reviews":0},{"name":"Art Ovation Hotel, Autograph Collection","lat":27.336549,"lng":-82.544937,"address":"1255 N Palm Ave","city":"Sarasota","gpid":"ChIJn_4zMBJAw4gRnyPviItiNRs","rating":4.5,"reviews":1590},{"name":"Bahia Vista Gulf","lat":27.110962,"lng":-82.463831,"address":"Tarpon Center Rd","city":"Sarasota","gpid":null,"rating":null,"reviews":0},{"name":"Banana Bay Club Waterside Cottages on Heron Lagoon","lat":27.230999,"lng":-82.520666,"address":"8254 Midnight Pass Rd","city":"Sarasota","gpid":null,"rating":null,"reviews":0},{"name":"Banyan Tree Beach Resort","lat":27.256247,"lng":-82.52086,"address":"1901 Baywood Dr","city":"Sarasota","gpid":null,"rating":null,"reviews":0},{"name":"Banyon Beach Resort","lat":27.217861,"lng":-82.514819,"address":"5253 casa meracora","city":"Sarasota","gpid":null,"rating":null,"reviews":0},{"name":"Baymont Inn & Suites Sarasota","lat":27.320647,"lng":-82.528393,"address":"1425 S. Tamiami Trail","city":"Sarasota","gpid":null,"rating":null,"reviews":0},{"name":"Baymont by Wyndham Sarasota","lat":27.320733,"lng":-82.528729,"address":"1425 S Tamiami Trl","city":"Sarasota","gpid":null,"rating":null,"reviews":0},{"name":"Beach Club At Siesta Key","lat":27.24845,"lng":-82.534143,"address":"","city":"Sarasota","gpid":"ChIJz5QbcSRCw4gRSXDrF9QQGB4","rating":4.2,"reviews":228},{"name":"Beach Palms of Siesta Key Village","lat":27.27379,"lng":-82.565487,"address":"153 Beach Rd","city":"Sarasota","gpid":null,"rating":null,"reviews":0},{"name":"Beach Place","lat":27.268445,"lng":-82.55472,"address":"5605 Avenida Del Mare","city":"Sarasota","gpid":null,"rating":null,"reviews":0},{"name":"Beach Point","lat":27.274141,"lng":-82.566404,"address":"125 Beach Rd","city":"Sarasota","gpid":null,"rating":null,"reviews":0},{"name":"Beachcomber In Venice","lat":27.086326,"lng":-82.455017,"address":"720 Golden Beach Blvd","city":"Sarasota","gpid":"ChIJT-zI8upbw4gRMmQKdV_HLLs","rating":4.6,"reviews":174},{"name":"Beachfront Sea Castles","lat":27.276815,"lng":-82.568323,"address":"20 Whispering Sands Dr Apt 1006","city":"Sarasota","gpid":null,"rating":null,"reviews":0},{"name":"Beachpoint Cottages","lat":27.274138,"lng":-82.56659,"address":"125 Beach Rd","city":"Sarasota","gpid":null,"rating":null,"reviews":0},{"name":"Beachside Management","lat":27.26659,"lng":-82.546125,"address":"5700 Midnight Pass Rd Ste 2","city":"Sarasota","gpid":null,"rating":null,"reviews":0},{"name":"Beachside Resorts Vacation Rentals","lat":27.275874,"lng":-82.564627,"address":"5200 Ocean Blvd","city":"Sarasota","gpid":null,"rating":null,"reviews":0},{"name":"Beau Lido Suites","lat":27.312892,"lng":-82.575494,"address":"149 Tyler Dr","city":"Sarasota","gpid":null,"rating":null,"reviews":0},{"name":"Bentley's Boutique Hotel","lat":27.17203,"lng":-82.48009,"address":"1660 S Tamiami Trl","city":"Sarasota","gpid":null,"rating":null,"reviews":0},{"name":"Bentley's On the Beach","lat":27.127649,"lng":-82.471569,"address":"221 Casey Key Rd","city":"Sarasota","gpid":null,"rating":null,"reviews":0},{"name":"Bentley's Resort Hotel","lat":27.172379,"lng":-82.479875,"address":"1660 S Tamiami Trl","city":"Sarasota","gpid":null,"rating":null,"reviews":0},{"name":"Best Western","lat":27.171988,"lng":-82.480697,"address":"1660 S Tamiami Trl","city":"Sarasota","gpid":null,"rating":null,"reviews":0},{"name":"Best Western Plus","lat":27.109091,"lng":-82.385374,"address":"400 Commercial Ct","city":"Sarasota","gpid":"ChIJsbdss39Qw4gROz3jKBdAg6s","rating":4.4,"reviews":812},{"name":"Best Western Plus Ambassador Suites Venice","lat":27.109091,"lng":-82.385374,"address":"400 Commercial Ct","city":"Sarasota","gpid":"ChIJsbdss39Qw4gROz3jKBdAg6s","rating":4.4,"reviews":812},{"name":"Bianco Sands Vacation Resort","lat":27.246858,"lng":-82.531821,"address":"1118 Point of Rocks Rd","city":"Sarasota","gpid":null,"rating":null,"reviews":0},{"name":"Budget Inn","lat":27.396073,"lng":-82.563813,"address":"8110 N Tamiami Trl","city":"Sarasota","gpid":null,"rating":null,"reviews":0},{"name":"Cadillac Motel","lat":27.36982,"lng":-82.553093,"address":"4021 N Tamiami Trl","city":"Sarasota","gpid":null,"rating":null,"reviews":0},{"name":"Calini beach club","lat":27.249445,"lng":-82.534772,"address":"1030 Seaside Dr","city":"Sarasota","gpid":"ChIJF70KeCRCw4gR3pYZk1HGtd0","rating":4.6,"reviews":156},{"name":"Campbell Thyrsa","lat":27.082832,"lng":-82.439081,"address":"920 Tamiami Trl S","city":"Sarasota","gpid":null,"rating":null,"reviews":0},{"name":"Captiva Beach Resort","lat":27.247677,"lng":-82.533334,"address":"6772 Sarasea Cir","city":"Sarasota","gpid":"ChIJ69RB9SRCw4gRqecKrWvfQF4","rating":4.6,"reviews":395},{"name":"Casa Blanca","lat":27.257591,"lng":-82.539755,"address":"6154 Midnight Pass Rd","city":"Sarasota","gpid":null,"rating":null,"reviews":0},{"name":"Casa Cay","lat":27.128001,"lng":-82.471772,"address":"309 Casey Key Rd","city":"Sarasota","gpid":null,"rating":null,"reviews":0},{"name":"Casa Limonada Boutique Motel","lat":27.311049,"lng":-82.573895,"address":"138 Garfield Dr","city":"Sarasota","gpid":null,"rating":null,"reviews":0},{"name":"Casa Mar","lat":27.26094,"lng":-82.542682,"address":"6006 Midnight Pass Rd","city":"Sarasota","gpid":null,"rating":null,"reviews":0},{"name":"Casey Key Resort","lat":27.173356,"lng":-82.47991,"address":"1650 S Tamiami Trl","city":"Sarasota","gpid":"ChIJTcMq_VlDw4gRjlox_ETtFr4","rating":4.2,"reviews":1722},{"name":"Club Bamboo Resorts","lat":27.337509,"lng":-82.468203,"address":"5040 Fruitville Rd","city":"Sarasota","gpid":null,"rating":null,"reviews":0},{"name":"Comfort Inn","lat":27.268074,"lng":-82.455023,"address":"5778 Clark Rd","city":"Sarasota","gpid":null,"rating":null,"reviews":0},{"name":"Comfort Suites","lat":27.271533,"lng":-82.465684,"address":"5690 Honore Ave","city":"Sarasota","gpid":"ChIJ_QplV7dGw4gRTpiFE2yYNCk","rating":4.4,"reviews":1052},{"name":"Community Miracle Resort","lat":27.051708,"lng":-82.261779,"address":"246 Ortiz Blvd","city":"Sarasota","gpid":null,"rating":null,"reviews":0},{"name":"Conclare Aman's Beach Resort","lat":27.24832,"lng":-82.534417,"address":"6738 Sarasea Cir","city":"Sarasota","gpid":null,"rating":null,"reviews":0},{"name":"Coquina on the Beach","lat":27.308545,"lng":-82.573197,"address":"1008 Benjamin Franklin Dr","city":"Sarasota","gpid":null,"rating":null,"reviews":0},{"name":"Courtyard Sarasota Bradenton Airport","lat":27.381195,"lng":-82.553722,"address":"850 University Parkway","city":"Sarasota","gpid":null,"rating":null,"reviews":0},{"name":"Crescent Arms","lat":27.253634,"lng":-82.538396,"address":"6308-6312 Midnight Pass Rd","city":"Sarasota","gpid":null,"rating":null,"reviews":0},{"name":"Crescent Beach 4 Rent - Siesta Key FL Condo Rental","lat":27.251342,"lng":-82.53462,"address":"6512 Midnight Pass Rd","city":"Sarasota","gpid":null,"rating":null,"reviews":0},{"name":"Crescent Towers Apt","lat":27.249122,"lng":-82.535337,"address":"1035 Seaside Dr","city":"Sarasota","gpid":null,"rating":null,"reviews":0},{"name":"Cypress Mayfair","lat":27.221455,"lng":-82.46336,"address":"5094 Central Sarasota Pkwy","city":"Sarasota","gpid":null,"rating":null,"reviews":0},{"name":"Dale Nelson","lat":27.277156,"lng":-82.568351,"address":"20 Whispering Sands Dr","city":"Sarasota","gpid":null,"rating":null,"reviews":0},{"name":"Days Inn","lat":27.267825,"lng":-82.45509,"address":"5774 Clark Rd","city":"Sarasota","gpid":null,"rating":null,"reviews":0},{"name":"Days Inn Sarasota","lat":27.377507,"lng":-82.554499,"address":"5000 N. Tamiami Trail","city":"Sarasota","gpid":null,"rating":null,"reviews":0},{"name":"Deluxe Inn/Mini Storage","lat":27.397066,"lng":-82.563126,"address":"8071 N Tamiami Trl","city":"Sarasota","gpid":null,"rating":null,"reviews":0},{"name":"Dock On The Bay","lat":27.37746,"lng":-82.633732,"address":"3440 Gulf of Mexico Dr","city":"Sarasota","gpid":null,"rating":null,"reviews":0},{"name":"Embassy Suites by Hilton","lat":27.338284,"lng":-82.546505,"address":"202 N Tamiami Trl","city":"Sarasota","gpid":"ChIJfYV_5RFAw4gRoWMEc-mBd6I","rating":4.2,"reviews":1530},{"name":"Exotic Pattaya Thailand Tours","lat":27.374063,"lng":-82.557224,"address":"4640 Guava Ct","city":"Sarasota","gpid":null,"rating":null,"reviews":0},{"name":"Fairfield Inn & Suites Venice","lat":27.109082,"lng":-82.382992,"address":"2935 Executive Drive","city":"Sarasota","gpid":null,"rating":null,"reviews":0},{"name":"Family Inn","lat":27.376065,"lng":-82.555127,"address":"4807 N Tamiami Trl","city":"Sarasota","gpid":null,"rating":null,"reviews":0},{"name":"Flamingo Colony Motel","lat":27.37486,"lng":-82.554853,"address":"4703 N Tamiami Trl","city":"Sarasota","gpid":null,"rating":null,"reviews":0},{"name":"Flip Flop Cottages","lat":27.230999,"lng":-82.520666,"address":"8254 Midnight Pass Rd","city":"Sarasota","gpid":null,"rating":null,"reviews":0},{"name":"Florida West Coast Symphony","lat":27.343087,"lng":-82.548324,"address":"709 N Tamiami Trl","city":"Sarasota","gpid":null,"rating":null,"reviews":0},{"name":"Floridaloha Vacations","lat":27.117822,"lng":-82.448857,"address":"202 Pocono Trl E","city":"Sarasota","gpid":null,"rating":null,"reviews":0},{"name":"G's Quick Stop - Quick Rest Before Work Again","lat":27.303121,"lng":-82.429123,"address":"No Where","city":"Sarasota","gpid":null,"rating":null,"reviews":0},{"name":"GGS Late Night","lat":27.261063,"lng":-82.515795,"address":"6508 Superior Ave","city":"Sarasota","gpid":null,"rating":null,"reviews":0},{"name":"Golden Host Resort","lat":27.373854,"lng":-82.554705,"address":"4675 N Tamiami Trl","city":"Sarasota","gpid":"ChIJ9dwGrz4_w4gR-0pMpk0ly_g","rating":4.3,"reviews":1150},{"name":"Golden Hotel","lat":27.278399,"lng":-82.560776,"address":"5084 Windward Ave","city":"Sarasota","gpid":null,"rating":null,"reviews":0},{"name":"Golder Robert","lat":27.082491,"lng":-82.439054,"address":"920 Tamiami Trl S Apt 352","city":"Sarasota","gpid":null,"rating":null,"reviews":0},{"name":"Gulf And Bay Club","lat":27.266232,"lng":-82.546162,"address":"5760 Midnight Pass Rd","city":"Sarasota","gpid":null,"rating":null,"reviews":0},{"name":"Gulf Beach Motel","lat":27.308607,"lng":-82.573399,"address":"930 Benjamin Franklin Dr","city":"Sarasota","gpid":null,"rating":null,"reviews":0},{"name":"Gulf Haven","lat":27.26403,"lng":-82.542627,"address":"5860 Midnight Pass Rd","city":"Sarasota","gpid":null,"rating":null,"reviews":0},{"name":"Gulf Sands Beach Resort","lat":27.130567,"lng":-82.472353,"address":"433 Casey Key Rd","city":"Sarasota","gpid":null,"rating":null,"reviews":0},{"name":"Gulf Shores Beach Resort","lat":27.12837,"lng":-82.471255,"address":"317 Casey Key Rd","city":"Sarasota","gpid":null,"rating":null,"reviews":0},{"name":"Gulf Side Motel","lat":27.311049,"lng":-82.573895,"address":"138 Garfield De","city":"Sarasota","gpid":null,"rating":null,"reviews":0},{"name":"Gulf Surf Motel","lat":27.176868,"lng":-82.497359,"address":"3905 Casey Key Rd","city":"Sarasota","gpid":null,"rating":null,"reviews":0},{"name":"Gulf Tides of Longboat","lat":27.370474,"lng":-82.628057,"address":"","city":"Sarasota","gpid":null,"rating":null,"reviews":0},{"name":"Gulf To Bay Club","lat":27.125672,"lng":-82.47049,"address":"113 Casey Key Rd Ofc OFC","city":"Sarasota","gpid":null,"rating":null,"reviews":0},{"name":"Gulfcoast Holiday Homes","lat":27.336251,"lng":-82.532386,"address":"1900 Main St Ste 200","city":"Sarasota","gpid":null,"rating":null,"reviews":0},{"name":"Gumbo Limbo Vacation Rentals","lat":27.316702,"lng":-82.478306,"address":"1598 Oak Cir N","city":"Sarasota","gpid":null,"rating":null,"reviews":0},{"name":"Gumbo Limbo Vacation Rentals","lat":27.268599,"lng":-82.555456,"address":"662 Calle del Otono","city":"Sarasota","gpid":null,"rating":null,"reviews":0},{"name":"Hampton Inn & Suites","lat":27.112431,"lng":-82.444463,"address":"881 Venetia Bay Blvd","city":"Sarasota","gpid":"ChIJB2MfPAhbw4gRWUXiZ1R0Whk","rating":4.3,"reviews":942},{"name":"Hampton Inn & Suites","lat":27.382351,"lng":-82.551471,"address":"975 University Pkwy","city":"Sarasota","gpid":"ChIJDf4oLts_w4gRy2J34JnyrpE","rating":4.3,"reviews":1076},{"name":"Hampton by Hilton","lat":27.112403,"lng":-82.444352,"address":"881 Venetia Bay Blvd","city":"Sarasota","gpid":null,"rating":null,"reviews":0},{"name":"Hampton by Hilton","lat":27.30004,"lng":-82.450028,"address":"5995 Cattleridge Blvd","city":"Sarasota","gpid":null,"rating":null,"reviews":0},{"name":"Harbor Lights Beach Resort","lat":27.126195,"lng":-82.470707,"address":"122 Casey Key Rd # 3303","city":"Sarasota","gpid":null,"rating":null,"reviews":0},{"name":"Heritage Vacation Rentals LLC","lat":27.088859,"lng":-82.455528,"address":"908 Villas Dr","city":"Sarasota","gpid":null,"rating":null,"reviews":0},{"name":"Hewett's Tropical Haven","lat":27.256864,"lng":-82.500246,"address":"6914 Antigua Pl","city":"Sarasota","gpid":null,"rating":null,"reviews":0},{"name":"Hibiscus Hideaway Vacation Rentals","lat":27.060357,"lng":-82.42761,"address":"3061 Siesta","city":"Sarasota","gpid":null,"rating":null,"reviews":0},{"name":"Hibiscus Suites","lat":27.257963,"lng":-82.526677,"address":"1735 Stickney Point Rd","city":"Sarasota","gpid":null,"rating":null,"reviews":0},{"name":"Hibiscus Suites - Gateway to Siesta Key","lat":27.257963,"lng":-82.526677,"address":"1735 Stickney Point Rd","city":"Sarasota","gpid":null,"rating":null,"reviews":0},{"name":"Hilton Garden Inn","lat":27.393432,"lng":-82.563021,"address":"8270 N Tamiami Trl","city":"Sarasota","gpid":"ChIJsUjHE34Vw4gRP0OdD5Is2SI","rating":4,"reviews":966},{"name":"Historic El Patio Motor Hotel","lat":27.099613,"lng":-82.446665,"address":"229 W Venice Ave","city":"Sarasota","gpid":null,"rating":null,"reviews":0},{"name":"Holiday Inn Express","lat":27.258509,"lng":-82.522404,"address":"6600 S Tamiami Trl","city":"Sarasota","gpid":null,"rating":null,"reviews":0},{"name":"Holiday Inn Express & Suites Sarasota East - I-75","lat":27.270542,"lng":-82.457106,"address":"5730 Gantt Road","city":"Sarasota","gpid":"ChIJCTdG_NtHw4gR3BC76VMTDcA","rating":3.6,"reviews":816},{"name":"Holiday Inn Express Venice","lat":27.10841,"lng":-82.385319,"address":"380 Commercial Ct","city":"Sarasota","gpid":"ChIJbfHWKX5Qw4gRPhAbPorsNuo","rating":3.8,"reviews":556},{"name":"Holiday Inn Sarasota-Airport","lat":27.39754,"lng":-82.546176,"address":"8009 15th St E","city":"Sarasota","gpid":null,"rating":null,"reviews":0},{"name":"Holiday Inn Sarasota-Lido Beach-@the Beach","lat":27.314485,"lng":-82.579172,"address":"233 Benjamin Franklin Dr","city":"Sarasota","gpid":null,"rating":null,"reviews":0},{"name":"Home2 Suites by Hilton","lat":27.393513,"lng":-82.562286,"address":"8260 N Tamiami Trl","city":"Sarasota","gpid":null,"rating":null,"reviews":0},{"name":"Home2 Suites by Hilton","lat":27.124447,"lng":-82.454947,"address":"227 Albee Rd W","city":"Sarasota","gpid":"ChIJw-okY21bw4gRK62eYya724Y","rating":4.5,"reviews":823},{"name":"Home2 Suites by Hilton Sarasota I-75 Bee Ridge","lat":27.30184,"lng":-82.441064,"address":"6410 Mauna Loa Blvd","city":"Sarasota","gpid":"ChIJP-PvIANHw4gRdApbE3-oiWE","rating":4.7,"reviews":707},{"name":"Homewood Suites by Hilton","lat":27.337106,"lng":-82.50026,"address":"3470 Fruitville Rd","city":"Sarasota","gpid":"ChIJJX2D2ZlAw4gRyYWV0lOoIIM","rating":4,"reviews":1003},{"name":"Horse & Chaise Inn","lat":27.096821,"lng":-82.44867,"address":"317 Ponce de Leon Ave","city":"Sarasota","gpid":null,"rating":null,"reviews":0},{"name":"Hotel Ranola","lat":27.335313,"lng":-82.535628,"address":"118 Indian Pl Apt 6","city":"Sarasota","gpid":null,"rating":null,"reviews":0},{"name":"House BR","lat":27.246392,"lng":-82.496612,"address":"3644 Muirfield Dr","city":"Sarasota","gpid":null,"rating":null,"reviews":0},{"name":"House of the Sun","lat":27.250145,"lng":-82.535421,"address":"6518 Midnight Pass Rd","city":"Sarasota","gpid":null,"rating":null,"reviews":0},{"name":"Hyatt Place Sarasota/Bradenton Airport","lat":27.381236,"lng":-82.55203,"address":"950 University Parkway","city":"Sarasota","gpid":"ChIJCdzhRds_w4gRgtt02DP25nA","rating":4.3,"reviews":954},{"name":"Hyatt Pool","lat":27.248476,"lng":-82.535365,"address":"915 Seaside Dr","city":"Sarasota","gpid":null,"rating":null,"reviews":0},{"name":"Hyatt Regency Sarasota","lat":27.340573,"lng":-82.549242,"address":"1000 Boulevard Of The Arts","city":"Sarasota","gpid":null,"rating":null,"reviews":0},{"name":"Hyatt Residence Club Sarasota, Siesta Key Beach","lat":27.248491,"lng":-82.535089,"address":"915 Seaside Dr","city":"Sarasota","gpid":null,"rating":null,"reviews":0},{"name":"Inn at the Beach","lat":27.099563,"lng":-82.458907,"address":"725 W Venice Ave","city":"Sarasota","gpid":"ChIJo1plTJdbw4gR0h9pszhsTzU","rating":4.8,"reviews":1598},{"name":"Island Breeze","lat":27.094542,"lng":-82.444573,"address":"340 Tamiami Trl S","city":"Sarasota","gpid":"ChIJHQkhLrpbw4gR8JHggY55khQ","rating":3.6,"reviews":397},{"name":"Island House Beach Resort","lat":27.258312,"lng":-82.540099,"address":"6150 Midnight Pass Rd","city":"Sarasota","gpid":null,"rating":null,"reviews":0},{"name":"Island Sun Inn","lat":27.088949,"lng":-82.442919,"address":"625 Tamiami Trail S, Venice, FL 34285","city":"Sarasota","gpid":"ChIJBcDh9bdbw4gRyOaF8EDbJtU","rating":3.8,"reviews":756},{"name":"Jamaica Royale Resort Sarasota","lat":27.263402,"lng":-82.545668,"address":"5830 Midnight Pass Rd","city":"Sarasota","gpid":null,"rating":null,"reviews":0},{"name":"Knights Inn Sarasota","lat":27.380196,"lng":-82.555751,"address":"5340 N Tamiami Trail -,US 41","city":"Sarasota","gpid":null,"rating":null,"reviews":0},{"name":"Kompose Hotel","lat":27.3825,"lng":-82.550518,"address":"965 University Pkwy","city":"Sarasota","gpid":"ChIJ-eqe0MQ_w4gRe-4Zary4czk","rating":4.7,"reviews":9249},{"name":"Kon Tiki Inn","lat":27.079575,"lng":-82.431015,"address":"1487 Tamiami Trl S","city":"Sarasota","gpid":"ChIJX_DsOjNaw4gRPVqG9dnZ8iU","rating":4.8,"reviews":383},{"name":"La Palme Royale Bed and Breakfast","lat":27.330259,"lng":-82.540166,"address":"624 S Palm Ave","city":"Sarasota","gpid":null,"rating":null,"reviews":0},{"name":"La Quinta Inn & Suites Sarasota - I75","lat":27.340485,"lng":-82.449576,"address":"5931 Commercial Way","city":"Sarasota","gpid":null,"rating":null,"reviews":0},{"name":"La Quinta Inn & Suites Sarasota Downtown","lat":27.353346,"lng":-82.547485,"address":"1803 North Tamiami Trail","city":"Sarasota","gpid":null,"rating":null,"reviews":0},{"name":"LaPlaya Longboat Key","lat":27.394026,"lng":-82.645168,"address":"4425 Gulf of Mexico Dr","city":"Sarasota","gpid":null,"rating":null,"reviews":0},{"name":"Lantern Inn and Suites","lat":27.413189,"lng":-82.572025,"address":"7251 N Tamiami Trail","city":"Sarasota","gpid":null,"rating":null,"reviews":0},{"name":"Laurel Villa Motel","lat":27.144308,"lng":-82.462305,"address":"1409 North Tamiami Trail","city":"Sarasota","gpid":null,"rating":null,"reviews":0},{"name":"Libby Luxury Beach Spa","lat":27.356599,"lng":-82.617225,"address":"2089 Gulf of Mexico Dr","city":"Sarasota","gpid":null,"rating":null,"reviews":0},{"name":"Lido Beach House","lat":27.311776,"lng":-82.573998,"address":"210 Grant Dr","city":"Sarasota","gpid":null,"rating":null,"reviews":0},{"name":"Lido Beach Resort","lat":27.310134,"lng":-82.575119,"address":"700 Benjamin Franklin Dr","city":"Sarasota","gpid":"ChIJg-jF3Ihqw4gRNJ0QhK4Ywsg","rating":4.5,"reviews":4014},{"name":"Lido Islander","lat":27.313311,"lng":-82.574782,"address":"528 S Polk Dr","city":"Sarasota","gpid":null,"rating":null,"reviews":0},{"name":"Limetree Beach Resort","lat":27.307668,"lng":-82.573727,"address":"1050 Benjamin Franklin Dr","city":"Sarasota","gpid":null,"rating":null,"reviews":0},{"name":"Little Gull Cottages","lat":27.383673,"lng":-82.638597,"address":"","city":"Sarasota","gpid":null,"rating":null,"reviews":0},{"name":"Longboat Accommodations","lat":27.387773,"lng":-82.640013,"address":"4030 Gulf of Mexico Dr","city":"Sarasota","gpid":null,"rating":null,"reviews":0},{"name":"Longboat Bay Club","lat":27.374308,"lng":-82.630923,"address":"3200 Gulf of Mexico Dr","city":"Sarasota","gpid":null,"rating":null,"reviews":0},{"name":"Longboat Key Club","lat":27.338951,"lng":-82.590518,"address":"444 Gulf of Mexico Dr","city":"Sarasota","gpid":null,"rating":null,"reviews":0},{"name":"Longboat Key Club","lat":27.338888,"lng":-82.590535,"address":"444 Gulf of Mexico Dr","city":"Sarasota","gpid":null,"rating":null,"reviews":0},{"name":"Longboat Key Club & Resort Islandside","lat":27.334301,"lng":-82.589434,"address":"361 Longboat Club Rd","city":"Sarasota","gpid":null,"rating":null,"reviews":0},{"name":"Longboat Key Vacation Villas","lat":27.330403,"lng":-82.590778,"address":"220 Sands Point Rd Ste 100","city":"Sarasota","gpid":null,"rating":null,"reviews":0},{"name":"M and M Lodgings LLC","lat":27.258384,"lng":-82.522437,"address":"6600 S Tamiami Trl","city":"Sarasota","gpid":null,"rating":null,"reviews":0},{"name":"Magnolia Pointe, Bw Signature Collection","lat":27.337499,"lng":-82.449905,"address":"5965 Brookhill Blvd","city":"Sarasota","gpid":null,"rating":null,"reviews":0},{"name":"Midnight Cove","lat":27.253604,"lng":-82.535506,"address":"6302 Midnight Cove Road","city":"Sarasota","gpid":null,"rating":null,"reviews":0},{"name":"Minorga On The Key Resort","lat":27.277993,"lng":-82.563638,"address":"5116 Calle Minorga","city":"Sarasota","gpid":null,"rating":null,"reviews":0},{"name":"Monterey Village","lat":27.358211,"lng":-82.548859,"address":"2413 N Tamiami Trl","city":"Sarasota","gpid":null,"rating":null,"reviews":0},{"name":"Motel 6 Venice FL","lat":27.102597,"lng":-82.43429,"address":"281 US 41 Bypass North","city":"Sarasota","gpid":"ChIJt8zE_qxbw4gRseKK4UWUWJ8","rating":3.7,"reviews":1663},{"name":"New Dawn Travels Dream Vacations","lat":27.069609,"lng":-82.350572,"address":"11434 Fort Lauderdale Pl","city":"Sarasota","gpid":null,"rating":null,"reviews":0},{"name":"Next To The Best","lat":27.274128,"lng":-82.562883,"address":"5247 Calle Menorca","city":"Sarasota","gpid":null,"rating":null,"reviews":0},{"name":"Nokomis Business Suites","lat":27.16043,"lng":-82.47175,"address":"2520 Tamiami Trl N","city":"Sarasota","gpid":null,"rating":null,"reviews":0},{"name":"Our House At The Beach","lat":27.267576,"lng":-82.54921,"address":"1001 Beach Rd Apt W103","city":"Sarasota","gpid":null,"rating":null,"reviews":0},{"name":"Oza Inn","lat":27.074599,"lng":-82.426156,"address":"1602 S Tamiami Trl","city":"Sarasota","gpid":null,"rating":null,"reviews":0},{"name":"Oza Inn","lat":27.094027,"lng":-82.429862,"address":"612 Country Club Way","city":"Sarasota","gpid":null,"rating":null,"reviews":0},{"name":"Parrot Beach Cottages","lat":27.275917,"lng":-82.568206,"address":"60 Avenida Veneccia","city":"Sarasota","gpid":null,"rating":null,"reviews":0},{"name":"Plantation Community Foundation","lat":27.059637,"lng":-82.358923,"address":"500 Rockley Blvd","city":"Sarasota","gpid":null,"rating":null,"reviews":0},{"name":"Polynesian Gardens","lat":27.257991,"lng":-82.537136,"address":"6201 Midnight Pass Rd","city":"Sarasota","gpid":null,"rating":null,"reviews":0},{"name":"Quality Inn","lat":27.267989,"lng":-82.454687,"address":"5778 Clark Rd","city":"Sarasota","gpid":"ChIJ-_vXlL1Gw4gRyP6-bXESP7A","rating":3.5,"reviews":838},{"name":"Quality Inn & Suites","lat":27.376137,"lng":-82.55397,"address":"4800 N Tamiami Trl","city":"Sarasota","gpid":null,"rating":null,"reviews":0},{"name":"QualityInn AndSuites","lat":27.376154,"lng":-82.553905,"address":"4800 N Tamiami Trl","city":"Sarasota","gpid":null,"rating":null,"reviews":0},{"name":"Rainfourth","lat":27.100463,"lng":-82.401354,"address":"1790 E Venice Ave Ste 203","city":"Sarasota","gpid":null,"rating":null,"reviews":0},{"name":"Ramada Inn","lat":27.251628,"lng":-82.515049,"address":"7150 S Tamiami Trl","city":"Sarasota","gpid":null,"rating":null,"reviews":0},{"name":"Ramada Inn","lat":27.172299,"lng":-82.479956,"address":"1660 S Tamiami Trl","city":"Sarasota","gpid":null,"rating":null,"reviews":0},{"name":"Ramada Inn Hotel & Conference Center","lat":27.390341,"lng":-82.561104,"address":"8440 N Tamiami Trl","city":"Sarasota","gpid":null,"rating":null,"reviews":0},{"name":"Ramada Venice Hotel Venezia","lat":27.105488,"lng":-82.436731,"address":"425 Us Highway 41 Byp N","city":"Sarasota","gpid":null,"rating":null,"reviews":0},{"name":"Ramada by Wyndham Sarasota Waterfront","lat":27.413157,"lng":-82.573472,"address":"7150 N Tamiami Trl","city":"Sarasota","gpid":"ChIJ_1W8M5AVw4gRRBIwOhNShU4","rating":4.4,"reviews":4598},{"name":"Regency Centers","lat":27.268604,"lng":-82.501266,"address":"3428 Clark Rd","city":"Sarasota","gpid":null,"rating":null,"reviews":0},{"name":"Regency Inn and Suites","lat":27.371294,"lng":-82.55252,"address":"N. Tamiami Trail","city":"Sarasota","gpid":null,"rating":null,"reviews":0},{"name":"Renaissance Manor","lat":27.043321,"lng":-82.414441,"address":"4521 Rainbow Rd","city":"Sarasota","gpid":null,"rating":null,"reviews":0},{"name":"Residence Inn Sarasota Bradenton","lat":27.381208,"lng":-82.549249,"address":"1040 University Pkwy","city":"Sarasota","gpid":null,"rating":null,"reviews":0},{"name":"Resort Quest Southwest Florida","lat":27.387835,"lng":-82.639996,"address":"4030 Gulf of Mexico Dr Ste B","city":"Sarasota","gpid":null,"rating":null,"reviews":0},{"name":"Resort Southwest Flori","lat":27.390618,"lng":-82.642666,"address":"4235 Gulf of Mexico Dr","city":"Sarasota","gpid":null,"rating":null,"reviews":0},{"name":"Ringling Beach House","lat":27.270517,"lng":-82.559188,"address":"523 Beach Rd","city":"Sarasota","gpid":null,"rating":null,"reviews":0},{"name":"Ritz Carlton Beach Club Poolside","lat":27.305509,"lng":-82.572658,"address":"1234 Benjamin Franklin Dr","city":"Sarasota","gpid":null,"rating":null,"reviews":0},{"name":"Rodeway Inn","lat":27.071812,"lng":-82.423995,"address":"1710 S Tamiami Trl","city":"Sarasota","gpid":null,"rating":null,"reviews":0},{"name":"San Marcos","lat":27.10865,"lng":-82.463141,"address":"1255 Tarpon Center Dr","city":"Sarasota","gpid":null,"rating":null,"reviews":0},{"name":"Sandbox On The Beach","lat":27.274059,"lng":-82.56733,"address":"108 Beach Rd","city":"Sarasota","gpid":null,"rating":null,"reviews":0},{"name":"Sandcastle Resort at Lido Beach","lat":27.304001,"lng":-82.571065,"address":"1540 Benjamin Franklin Dr","city":"Sarasota","gpid":null,"rating":null,"reviews":0},{"name":"Sara Sea Beach Resort","lat":27.247541,"lng":-82.533849,"address":"","city":"Sarasota","gpid":null,"rating":null,"reviews":0},{"name":"Sarasota Airport Hotel","lat":27.376677,"lng":-82.554124,"address":"4900 N Tamiami Trl","city":"Sarasota","gpid":null,"rating":null,"reviews":0},{"name":"Sarasota Sands","lat":27.299438,"lng":-82.568432,"address":"2150 Benjamin Franklin Dr","city":"Sarasota","gpid":null,"rating":null,"reviews":0},{"name":"Sarasota Suites","lat":27.413143,"lng":-82.571977,"address":"7251 N Tamiami Trl","city":"Sarasota","gpid":null,"rating":null,"reviews":0},{"name":"Sarasota Surf And Raquet Club","lat":27.261889,"lng":-82.543921,"address":"Surf and Raquet Club","city":"Sarasota","gpid":null,"rating":null,"reviews":0},{"name":"Sea Club 2","lat":27.262836,"lng":-82.541872,"address":"5950 Midnight Pass Rd","city":"Sarasota","gpid":null,"rating":null,"reviews":0},{"name":"Sea Club V","lat":27.247945,"lng":-82.534873,"address":"6744 Sarasea Cir","city":"Sarasota","gpid":"ChIJHVHffiNCw4gRWFE7oOGiNAE","rating":4.6,"reviews":245},{"name":"Sea Crest Resort","lat":27.249917,"lng":-82.535183,"address":"1129 Seaside Dr","city":"Sarasota","gpid":null,"rating":null,"reviews":0},{"name":"Sea Horse Beach Resort Condo","lat":27.376801,"lng":-82.634029,"address":"3453 Gulf of Mexico Dr","city":"Sarasota","gpid":null,"rating":null,"reviews":0},{"name":"Sea Spray Resort Siesta Key Sarasota","lat":27.27001,"lng":-82.557589,"address":"574 Canal Rd","city":"Sarasota","gpid":null,"rating":null,"reviews":0},{"name":"Sea Winds","lat":27.248994,"lng":-82.53274,"address":"6703 Midnight Pass Rd","city":"Sarasota","gpid":null,"rating":null,"reviews":0},{"name":"Seagrove Siesta Key","lat":27.252163,"lng":-82.536791,"address":"6400 Midnight Pass Road","city":"Sarasota","gpid":null,"rating":null,"reviews":0},{"name":"Seawinds, Siesta Key Vacation & Holiday Rental","lat":27.249859,"lng":-82.534301,"address":"6610 Midnight Pass Rd Apt 10","city":"Sarasota","gpid":null,"rating":null,"reviews":0},{"name":"Seista Key Sunset","lat":27.216346,"lng":-82.515945,"address":"8900 Blind Pass Rd","city":"Sarasota","gpid":null,"rating":null,"reviews":0},{"name":"Siesta Beach House","lat":27.262836,"lng":-82.541872,"address":"5950 Midnight Pass Rd","city":"Sarasota","gpid":null,"rating":null,"reviews":0},{"name":"Siesta Beach Resort & Suites","lat":27.27346,"lng":-82.564,"address":"5311 Ocean Blvd","city":"Sarasota","gpid":null,"rating":null,"reviews":0},{"name":"Siesta Breakers Resort","lat":27.250854,"lng":-82.536238,"address":"6480 Midnight Pass Rd","city":"Sarasota","gpid":null,"rating":null,"reviews":0},{"name":"Siesta Cottages","lat":27.247324,"lng":-82.532473,"address":"1105 Point of Rocks Rd # 1105","city":"Sarasota","gpid":null,"rating":null,"reviews":0},{"name":"Siesta Dunes","lat":27.256817,"lng":-82.538947,"address":"6200 Midnight Pass Rd","city":"Sarasota","gpid":null,"rating":null,"reviews":0},{"name":"Siesta Inn","lat":27.376219,"lng":-82.555205,"address":"4847 N Tamiami Trl","city":"Sarasota","gpid":null,"rating":null,"reviews":0},{"name":"Siesta Key Bungalows","lat":27.232397,"lng":-82.521305,"address":"8212 Midnight Pass Rd","city":"Sarasota","gpid":null,"rating":null,"reviews":0},{"name":"Siesta Key For Me - The Palm Bay Club","lat":27.263136,"lng":-82.540296,"address":"5961 Midnight Pass Rd","city":"Sarasota","gpid":null,"rating":null,"reviews":0},{"name":"Siesta Key Palms Hotel","lat":27.257581,"lng":-82.525703,"address":"1800 Stickney Point Rd","city":"Sarasota","gpid":null,"rating":null,"reviews":0},{"name":"Siesta Key Sarasota Vacation","lat":27.29676,"lng":-82.438808,"address":"4221 Lancaster Dr","city":"Sarasota","gpid":null,"rating":null,"reviews":0},{"name":"Siesta Key Suites Sarasota","lat":27.270563,"lng":-82.559235,"address":"523 Beach Rd","city":"Sarasota","gpid":null,"rating":null,"reviews":0},{"name":"Siesta Pearl","lat":27.274875,"lng":-82.564896,"address":"5231 Avenida Navarra","city":"Sarasota","gpid":null,"rating":null,"reviews":0},{"name":"Siesta Resorts","lat":27.251272,"lng":-82.532904,"address":"6537 Sabal Dr","city":"Sarasota","gpid":null,"rating":null,"reviews":0},{"name":"Siesta Royale","lat":27.253878,"lng":-82.536449,"address":"6334 Midnight Pass Rd","city":"Sarasota","gpid":null,"rating":null,"reviews":0},{"name":"Siesta Sands Beach Resort","lat":27.247354,"lng":-82.5339,"address":"1010 Point of Rocks Rd","city":"Sarasota","gpid":"ChIJt5P_hCRCw4gRg6Y5hsctM2w","rating":4.5,"reviews":151},{"name":"Siesta Sands On The Beach","lat":27.27382,"lng":-82.566915,"address":"118 Beach Rd","city":"Sarasota","gpid":null,"rating":null,"reviews":0},{"name":"Siesta Sun Beach Villas","lat":27.252184,"lng":-82.535828,"address":"6423 midnight pass","city":"Sarasota","gpid":null,"rating":null,"reviews":0},{"name":"Siesta Sunset Royale","lat":27.272395,"lng":-82.561973,"address":"5322 Calle de La Siesta","city":"Sarasota","gpid":null,"rating":null,"reviews":0},{"name":"SiestaKey Turtle Beach Vacation","lat":27.2163,"lng":-82.515897,"address":"8900 Blind Pass Rd","city":"Sarasota","gpid":null,"rating":null,"reviews":0},{"name":"Sip-N-Cycle Cruises","lat":27.274027,"lng":-82.563927,"address":"5263 Ocean Blvd","city":"Sarasota","gpid":null,"rating":null,"reviews":0},{"name":"Sip-N-Cycle Cruises","lat":27.220133,"lng":-82.514566,"address":"8865 Midnight Pass Rd","city":"Sarasota","gpid":null,"rating":null,"reviews":0},{"name":"Sleep Inn","lat":27.380231,"lng":-82.552746,"address":"900 University Pkwy","city":"Sarasota","gpid":null,"rating":null,"reviews":0},{"name":"Slim Down Sarasota","lat":27.053644,"lng":-82.410705,"address":"2190 S Tamiami Trl Ste 100","city":"Sarasota","gpid":null,"rating":null,"reviews":0},{"name":"Sophie's Cottage","lat":27.273576,"lng":-82.555732,"address":"5326 Avenida Del Mare","city":"Sarasota","gpid":null,"rating":null,"reviews":0},{"name":"Southern Reflections Vacation Rental Home Sarasota","lat":27.382081,"lng":-82.52404,"address":"2307 Desoto Rd","city":"Sarasota","gpid":null,"rating":null,"reviews":0},{"name":"Spring Valley Inn","lat":27.223639,"lng":-82.516013,"address":"8701 Midnight Pass Rd Apt 605A","city":"Sarasota","gpid":null,"rating":null,"reviews":0},{"name":"SpringHill Suites Sarasota Bradenton","lat":27.381256,"lng":-82.550613,"address":"1020 University Pkwy","city":"Sarasota","gpid":null,"rating":null,"reviews":0},{"name":"Springhill Suites-Sarasota","lat":27.381323,"lng":-82.550596,"address":"1020 University Pkwy","city":"Sarasota","gpid":null,"rating":null,"reviews":0},{"name":"Stay And Visit Italy","lat":27.249372,"lng":-82.513923,"address":"7256 S Tamiami Trl","city":"Sarasota","gpid":null,"rating":null,"reviews":0},{"name":"Suburban Extended Stay Hotel","lat":27.413189,"lng":-82.572025,"address":"Tamiami Trail","city":"Sarasota","gpid":null,"rating":null,"reviews":0},{"name":"Sun Resorts International","lat":27.381533,"lng":-82.637013,"address":"3720 Gulf of Mexico Dr","city":"Sarasota","gpid":null,"rating":null,"reviews":0},{"name":"Sun Resorts International","lat":27.369342,"lng":-82.623087,"address":"595 Bay Isles Rd Ste 120H","city":"Sarasota","gpid":null,"rating":null,"reviews":0},{"name":"Sun Tide Island Beach Club","lat":27.308975,"lng":-82.574273,"address":"850 Benjamin Franklin Dr","city":"Sarasota","gpid":null,"rating":null,"reviews":0},{"name":"Sunset Royale Penthouse Vacation Rental","lat":27.272349,"lng":-82.561926,"address":"5322 Calle De La Siesta","city":"Sarasota","gpid":null,"rating":null,"reviews":0},{"name":"Sunsets On The Key","lat":27.275715,"lng":-82.564789,"address":"5203 Avenida Navarra","city":"Sarasota","gpid":null,"rating":null,"reviews":0},{"name":"Sunshine Motel","lat":27.074366,"lng":-82.426159,"address":"1602 Tamiami Trl S","city":"Sarasota","gpid":null,"rating":null,"reviews":0},{"name":"Suntan Terrace","lat":27.125894,"lng":-82.470967,"address":"117 Casey Key Rd","city":"Sarasota","gpid":"ChIJ11G8j3tbw4gRoPyXlmEh7mQ","rating":4.9,"reviews":634},{"name":"Suntan Terrace Beach Resort","lat":27.317211,"lng":-82.52866,"address":"2054 Arlington St Apt 201","city":"Sarasota","gpid":null,"rating":null,"reviews":0},{"name":"Super 8","lat":27.371888,"lng":-82.553907,"address":"4309 N Tamiami Trl","city":"Sarasota","gpid":null,"rating":null,"reviews":0},{"name":"SureStay By Best Western Sarasota Lido Beach","lat":27.38023,"lng":-82.555622,"address":"5340 N Tamiami Trl","city":"Sarasota","gpid":null,"rating":null,"reviews":0},{"name":"Surestay Hotel By Best Western Sarasota North","lat":27.380196,"lng":-82.555751,"address":"5340 N Tamiami Trl","city":"Sarasota","gpid":null,"rating":null,"reviews":0},{"name":"Sweet Mango Manor","lat":27.348884,"lng":-82.54496,"address":"1205 Cocoanut Ave","city":"Sarasota","gpid":null,"rating":null,"reviews":0},{"name":"The Banyan House Historic Bed And Breakfast","lat":27.090985,"lng":-82.449877,"address":"Harbor Dr S","city":"Sarasota","gpid":null,"rating":null,"reviews":0},{"name":"The Beach Club Resort","lat":27.24845,"lng":-82.534143,"address":"6732 Sarasea Cir","city":"Sarasota","gpid":null,"rating":null,"reviews":0},{"name":"The Beach On Longboat Key","lat":27.377489,"lng":-82.634504,"address":"3465 Gulf of Mexico Dr","city":"Sarasota","gpid":null,"rating":null,"reviews":0},{"name":"The Beachcomber","lat":27.126462,"lng":-82.471232,"address":"129 Casey Key Rd","city":"Sarasota","gpid":null,"rating":null,"reviews":0},{"name":"The Beachcomber","lat":27.366368,"lng":-82.626224,"address":"2721 Gulf of Mexico Dr","city":"Sarasota","gpid":null,"rating":null,"reviews":0},{"name":"The Capri of Siesta","lat":27.247592,"lng":-82.532998,"address":"6787 SaraSea Circle","city":"Sarasota","gpid":null,"rating":null,"reviews":0},{"name":"The Carlisle Inn","lat":27.323432,"lng":-82.494853,"address":"3727 Bahia Vista, Sarasota,FL","city":"Sarasota","gpid":null,"rating":null,"reviews":0},{"name":"The Cypress - A Bed & Breakfast Inn","lat":27.330225,"lng":-82.540295,"address":"621 S Gulfstream Ave","city":"Sarasota","gpid":null,"rating":null,"reviews":0},{"name":"The Ebb Tide Villas","lat":27.249956,"lng":-82.534156,"address":"6610 Midnight Pass Rd","city":"Sarasota","gpid":null,"rating":null,"reviews":0},{"name":"The Flamingo House","lat":27.274739,"lng":-82.566069,"address":"129 Avenida Veneccia","city":"Sarasota","gpid":null,"rating":null,"reviews":0},{"name":"The Garden House B&B Venice, Fl: A Sweet Suite","lat":27.067421,"lng":-82.42195,"address":"110 Zephyr Rd","city":"Sarasota","gpid":null,"rating":null,"reviews":0},{"name":"The Hummingbird","lat":27.27385,"lng":-82.562838,"address":"5251 Calle Menorca","city":"Sarasota","gpid":null,"rating":null,"reviews":0},{"name":"The Inn At Siesta Key","lat":27.270762,"lng":-82.559361,"address":"515 Beach Rd","city":"Sarasota","gpid":null,"rating":null,"reviews":0},{"name":"The Inn at Midtown","lat":27.320841,"lng":-82.528759,"address":"1425 S Tamiami Trl","city":"Sarasota","gpid":null,"rating":null,"reviews":0},{"name":"The Inn at Turtle Beach","lat":27.217554,"lng":-82.514663,"address":"9004 Midnight Pass Rd Unit 34242","city":"Sarasota","gpid":null,"rating":null,"reviews":0},{"name":"The Norman Inn","lat":27.286817,"lng":-82.489598,"address":"4644 Sawyer Rd","city":"Sarasota","gpid":null,"rating":null,"reviews":0},{"name":"The Palm Bay Club","lat":27.263274,"lng":-82.540098,"address":"5960 Midnight Pass Rd","city":"Sarasota","gpid":null,"rating":null,"reviews":0},{"name":"The Resort at Longboat Key Club","lat":27.330929,"lng":-82.590952,"address":"220 Sands Point Rd","city":"Sarasota","gpid":"ChIJqZAQtMVqw4gRQSMDzhntYY4","rating":4.6,"reviews":1470},{"name":"The Ritz-Carlton Beach Club","lat":27.305397,"lng":-82.572518,"address":"1300 Benjamin Franklin Dr","city":"Sarasota","gpid":null,"rating":null,"reviews":0},{"name":"The Ritz-Carlton, Sarasota","lat":27.337659,"lng":-82.549057,"address":"1111 Ritz-Carlton Drive","city":"Sarasota","gpid":"ChIJRxeQRxBAw4gRi93tRdpVyX0","rating":4.5,"reviews":2469},{"name":"The Sarasota Modern, a Tribute Portfolio Hotel","lat":27.341064,"lng":-82.545237,"address":"1290 Boulevard Of The Arts","city":"Sarasota","gpid":"ChIJEfkg0A1Aw4gRaUdlFUu85bA","rating":4.1,"reviews":645},{"name":"The Shells Villa","lat":27.272003,"lng":-82.562796,"address":"312 Beach Rd","city":"Sarasota","gpid":null,"rating":null,"reviews":0},{"name":"The Tennis Gardens","lat":27.374963,"lng":-82.622474,"address":"3100 Harbourside Dr","city":"Sarasota","gpid":null,"rating":null,"reviews":0},{"name":"The Veranda Inn","lat":27.089141,"lng":-82.442628,"address":"625 Tamiami Trl S","city":"Sarasota","gpid":null,"rating":null,"reviews":0},{"name":"The Westin Sarasota","lat":27.336464,"lng":-82.547046,"address":"100 Marina View Dr","city":"Sarasota","gpid":"ChIJQzeGphFAw4gRUVSuNnIkJT4","rating":4.4,"reviews":2622},{"name":"Timberwoods Vacation Villas","lat":27.238543,"lng":-82.495799,"address":"3609 Yellow Pine Ct","city":"Sarasota","gpid":null,"rating":null,"reviews":0},{"name":"Tivoli by the Sea","lat":27.269015,"lng":-82.556959,"address":"625 Beach Rd","city":"Sarasota","gpid":null,"rating":null,"reviews":0},{"name":"Towneplace Suites by Marriott","lat":27.10793,"lng":-82.382528,"address":"2986 Executive Dr","city":"Sarasota","gpid":"ChIJCXyITIdQw4gRo9fHGjbfmkE","rating":4.4,"reviews":283},{"name":"Tropical Beach Resorts","lat":27.248325,"lng":-82.533463,"address":"6717 Sarasea Circle","city":"Sarasota","gpid":"ChIJp9x9XSRCw4gRdvhP9hbyu0k","rating":4.7,"reviews":2185},{"name":"Tropical Breeze Resort","lat":27.275733,"lng":-82.565383,"address":"140 Columbus Blvd","city":"Sarasota","gpid":null,"rating":null,"reviews":0},{"name":"Tropical Fruit Garden","lat":27.297307,"lng":-82.508598,"address":"4001 Groveland Ave Apt 1","city":"Sarasota","gpid":null,"rating":null,"reviews":0},{"name":"Turtle Beach Campground","lat":27.220127,"lng":-82.51669,"address":"8862 Midnight Pass Rd","city":"Sarasota","gpid":null,"rating":null,"reviews":0},{"name":"Turtle Beach Resort","lat":27.216565,"lng":-82.513794,"address":"9049 Midnight Pass Rd","city":"Sarasota","gpid":"ChIJZ-qKNKxDw4gRAhsMoqYD19s","rating":4.7,"reviews":388},{"name":"Turtle Crawl Inn","lat":27.390397,"lng":-82.642596,"address":"4235 Gulf of Mexico Dr","city":"Sarasota","gpid":"ChIJ1YsBsoQUw4gRmH5vlV6tQEI","rating":4.3,"reviews":262},{"name":"Twin Palms at Siesta","lat":27.247255,"lng":-82.532072,"address":"1115 Point of Rocks Rd","city":"Sarasota","gpid":null,"rating":null,"reviews":0},{"name":"Twin Shores","lat":27.381579,"lng":-82.637061,"address":"3740 Gulf of Mexico Dr","city":"Sarasota","gpid":null,"rating":null,"reviews":0},{"name":"VOCO Sarasota","lat":27.341455,"lng":-82.546146,"address":"1223 Boulevard of the Arts","city":"Sarasota","gpid":"ChIJ-0P9ZA5Aw4gR71lS69AigVA","rating":4.4,"reviews":979},{"name":"Venice Beach Villas","lat":27.099406,"lng":-82.452268,"address":"501 W Venice Ave","city":"Sarasota","gpid":"ChIJQW1jN71bw4gRgw6bv5lW_dA","rating":4.7,"reviews":257},{"name":"Venice Florida Houses","lat":27.164214,"lng":-82.467745,"address":"Signorelli Drive","city":"Sarasota","gpid":null,"rating":null,"reviews":0},{"name":"Venice Massage","lat":27.059056,"lng":-82.414788,"address":"1988 S Tamiami Trl","city":"Sarasota","gpid":null,"rating":null,"reviews":0},{"name":"Veranda Beach Club","lat":27.364222,"lng":-82.623565,"address":"2509 Gulf of Mexico Dr","city":"Sarasota","gpid":null,"rating":null,"reviews":0},{"name":"Virage Hotel","lat":27.172078,"lng":-82.480135,"address":"1650 S Tamiami Trl","city":"Sarasota","gpid":null,"rating":null,"reviews":0},{"name":"Warm Mineral Springs Motel","lat":27.047693,"lng":-82.261854,"address":"12597 Tamiami Trl S","city":"Sarasota","gpid":"ChIJNx_mOHxUw4gRW_dbjdLGEJg","rating":3.6,"reviews":382},{"name":"West Beach Hotel and Resort","lat":27.080327,"lng":-82.436059,"address":"1111 Avenida Del Circo","city":"Sarasota","gpid":null,"rating":null,"reviews":0},{"name":"White Sands Cabana Club","lat":27.25618,"lng":-82.538281,"address":"Name: White Sands Cabana Club Street: 6250 Midnigh","city":"Sarasota","gpid":null,"rating":null,"reviews":0},{"name":"Whitfield Motel","lat":27.417696,"lng":-82.549555,"address":"1280 Whitfield Ave","city":"Sarasota","gpid":null,"rating":null,"reviews":0},{"name":"Windward Passage","lat":27.284868,"lng":-82.563762,"address":"4712 Ocean Blvd","city":"Sarasota","gpid":null,"rating":null,"reviews":0},{"name":"Wishing Well Beach To Bay Resort Motel","lat":27.127649,"lng":-82.471569,"address":"221 Casey Key Rd","city":"Sarasota","gpid":null,"rating":null,"reviews":0},{"name":"Wohlt House Bed &  Breakfast","lat":27.30623,"lng":-82.530458,"address":"3030 S Tamiami Trl Unit 5","city":"Sarasota","gpid":null,"rating":null,"reviews":0},{"name":"Wyndham Hotels & Resorts","lat":27.096448,"lng":-82.43386,"address":"425 US Highway 41 Byp N","city":"Sarasota","gpid":null,"rating":null,"reviews":0},{"name":"Wyndham Hotels & Resorts","lat":27.071384,"lng":-82.423624,"address":"1710 S Tamiami Trl","city":"Sarasota","gpid":null,"rating":null,"reviews":0},{"name":"Zilli Villa","lat":27.390629,"lng":-82.642183,"address":"4235 Gulf of Mexico Dr","city":"Sarasota","gpid":null,"rating":null,"reviews":0},{"name":"ahenige@netvantage.me","lat":27.381533,"lng":-82.637013,"address":"3720 Gulf of Mexico Dr","city":"Sarasota","gpid":null,"rating":null,"reviews":0},{"name":"island house motel","lat":27.126661,"lng":-82.471358,"address":"205 Casey Key Rd, Nokomis, FL 34275","city":"Sarasota","gpid":null,"rating":null,"reviews":0}]